{"restaurants": [{"name": "Bacchanal Buffet", "coordinates": {"latitude": 36.1159291, "longitude": -115.1762385}, "city": "Las Vegas", "yelp_review_count": 10674, "tweet_cnt": 28, "yelp_rating": 4.0, "vader_polarity": "POSITIVE"}]}
{"restaurants": [{"name": "Mon Ami Gabi", "coordinates": {"latitude": 36.112859, "longitude": -115.172434}, "city": "Las Vegas", "yelp_review_count": 9691, "tweet_cnt": 91, "yelp_rating": 4.0, "vader_polarity": "POSITIVE"}]}
{"restaurants": [{"name": "Hash House A Go Go", "coordinates": {"latitude": 36.1181806905551, "longitude": -115.171579781293}, "city": "Las Vegas", "yelp_review_count": 7110, "tweet_cnt": 24, "yelp_rating": 4.0, "vader_polarity": "POSITIVE"}]}
{"restaurants": [{"name": "Gordon Ramsay Hell's Kitchen", "coordinates": {"latitude": 36.11618, "longitude": -115.175068}, "city": "Las Vegas", "yelp_review_count": 5805, "tweet_cnt": 36, "yelp_rating": 4.5, "vader_polarity": "POSITIVE"}]}
{"restaurants": [{"name": "Honey Salt", "coordinates": {"latitude": 36.160577, "longitude": -115.292996}, "city": "Las Vegas", "yelp_review_count": 2029, "tweet_cnt": 1, "yelp_rating": 4.0, "vader_polarity": "NEUTRAL"}]}
{"restaurants": [{"name": "The Golden Tiki", "coordinates": {"latitude": 36.1261397025498, "longitude": -115.192284688341}, "city": "Las Vegas", "yelp_review_count": 1487, "tweet_cnt": 9, "yelp_rating": 4.5, "vader_polarity": "POSITIVE"}]}
{"restaurants": [{"name": "The Chandelier", "coordinates": {"latitude": 36.109767, "longitude": -115.173903204121}, "city": "Las Vegas", "yelp_review_count": 1386, "tweet_cnt": 30, "yelp_rating": 4.0, "vader_polarity": "POSITIVE"}]}
{"restaurants": [{"name": "Frankie's Tiki Room", "coordinates": {"latitude": 36.15921, "longitude": -115.16471}, "city": "Las Vegas", "yelp_review_count": 1033, "tweet_cnt": 0, "yelp_rating": 4.5, "vader_polarity": "POSITIVE"}]}
{"restaurants": [{"name": "The Stove", "coordinates": {"latitude": 35.987071, "longitude": -115.101414}, "city": "Henderson", "yelp_review_count": 900, "tweet_cnt": 0, "yelp_rating": 4.0, "vader_polarity": "POSITIVE"}]}
{"restaurants": [{"name": "Caf\u00e9 Tu Tu Tango", "coordinates": {"latitude": 28.44046, "longitude": -81.47008}, "city": "Orlando", "yelp_review_count": 3156, "tweet_cnt": 1, "yelp_rating": 4.5, "vader_polarity": "POSITIVE"}]}
{"restaurants": [{"name": "The Cowfish Sushi Burger Bar", "coordinates": {"latitude": 28.4730275706703, "longitude": -81.4653477619019}, "city": "Orlando", "yelp_review_count": 2366, "tweet_cnt": 31, "yelp_rating": 4.0, "vader_polarity": "POSITIVE"}]}
{"restaurants": [{"name": "Hash House A Go Go", "coordinates": {"latitude": 28.4622793998106, "longitude": -81.4508473082962}, "city": "Orlando", "yelp_review_count": 2304, "tweet_cnt": 0, "yelp_rating": 4.0, "vader_polarity": "POSITIVE"}]}
{"restaurants": [{"name": "The Toothsome Chocolate Emporium And Savory Feast Kitchen", "coordinates": {"latitude": 28.473025, "longitude": -81.467856}, "city": "Orlando", "yelp_review_count": 2260, "tweet_cnt": 44, "yelp_rating": 4.0, "vader_polarity": "POSITIVE"}]}
{"restaurants": [{"name": "The Stubborn Mule", "coordinates": {"latitude": 28.541147, "longitude": -81.3701213131699}, "city": "Orlando", "yelp_review_count": 805, "tweet_cnt": 4, "yelp_rating": 4.0, "vader_polarity": "POSITIVE"}]}
{"restaurants": [{"name": "Pharmacy", "coordinates": {"latitude": 28.4503209, "longitude": -81.4950026}, "city": "Orlando", "yelp_review_count": 588, "tweet_cnt": 3, "yelp_rating": 4.0, "vader_polarity": "NEGATIVE"}]}
{"restaurants": [{"name": "The Whiskey", "coordinates": {"latitude": 28.450702, "longitude": -81.486127}, "city": "Orlando", "yelp_review_count": 561, "tweet_cnt": 1, "yelp_rating": 4.0, "vader_polarity": "POSITIVE"}]}
{"restaurants": [{"name": "Vanbarry's Public House", "coordinates": {"latitude": 28.4977333, "longitude": -81.3760972}, "city": "Orlando", "yelp_review_count": 405, "tweet_cnt": 1, "yelp_rating": 4.0, "vader_polarity": "POSITIVE"}]}
{"restaurants": [{"name": "The Guesthouse", "coordinates": {"latitude": 28.5628238141679, "longitude": -81.364270336926}, "city": "Orlando", "yelp_review_count": 306, "tweet_cnt": 6, "yelp_rating": 4.0, "vader_polarity": "NEUTRAL"}]}
