{"restaurants": [{"name": "Wicked Spoon", "coordinates": {"latitude": 36.10955, "longitude": -115.176155}, "city": "Las Vegas", "yelp_review_count": 7565, "tweet_cnt": 22, "yelp_rating": 3.5, "vader_polarity": "POSITIVE"}]}
{"restaurants": [{"name": "The Buffet at Bellagio", "coordinates": {"latitude": 36.11322, "longitude": -115.17689}, "city": "Las Vegas", "yelp_review_count": 4693, "tweet_cnt": 45, "yelp_rating": 3.5, "vader_polarity": "POSITIVE"}]}
{"restaurants": [{"name": "Gordon Ramsay Pub & Grill", "coordinates": {"latitude": 36.117397, "longitude": -115.1757521}, "city": "Las Vegas", "yelp_review_count": 4215, "tweet_cnt": 35, "yelp_rating": 3.5, "vader_polarity": "POSITIVE"}]}
{"restaurants": [{"name": "Guy Fieri's Vegas Kitchen", "coordinates": {"latitude": 36.1180802325944, "longitude": -115.17243236084}, "city": "Las Vegas", "yelp_review_count": 3934, "tweet_cnt": 22, "yelp_rating": 3.5, "vader_polarity": "NEUTRAL"}]}
{"restaurants": [{"name": "Giada", "coordinates": {"latitude": 36.114984, "longitude": -115.172567}, "city": "Las Vegas", "yelp_review_count": 3513, "tweet_cnt": 23, "yelp_rating": 3.5, "vader_polarity": "POSITIVE"}]}
{"restaurants": [{"name": "Pho Kim Long", "coordinates": {"latitude": 36.1261943318021, "longitude": -115.193445287033}, "city": "Las Vegas", "yelp_review_count": 3482, "tweet_cnt": 9, "yelp_rating": 3.5, "vader_polarity": "POSITIVE"}]}
{"restaurants": [{"name": "Pampas Brazilian Grille", "coordinates": {"latitude": 36.108557, "longitude": -115.1707}, "city": "Las Vegas", "yelp_review_count": 3281, "tweet_cnt": 9, "yelp_rating": 3.0, "vader_polarity": "POSITIVE"}]}
{"restaurants": [{"name": "Sugar Factory", "coordinates": {"latitude": 36.126878, "longitude": -115.169193}, "city": "Las Vegas", "yelp_review_count": 1493, "tweet_cnt": 4, "yelp_rating": 3.5, "vader_polarity": "POSITIVE"}]}
{"restaurants": [{"name": "Blue Martini Lounge", "coordinates": {"latitude": 36.068370629104, "longitude": -115.177535905972}, "city": "Las Vegas", "yelp_review_count": 1110, "tweet_cnt": 5, "yelp_rating": 3.0, "vader_polarity": "POSITIVE"}]}
{"restaurants": [{"name": "Twin Peaks", "coordinates": {"latitude": 36.0159515, "longitude": -115.1184997}, "city": "Henderson", "yelp_review_count": 822, "tweet_cnt": 1, "yelp_rating": 3.5, "vader_polarity": "NEUTRAL"}]}
{"restaurants": [{"name": "minus5 ICEBAR", "coordinates": {"latitude": 36.0926456559972, "longitude": -115.176028801283}, "city": "Las Vegas", "yelp_review_count": 808, "tweet_cnt": 12, "yelp_rating": 3.0, "vader_polarity": "POSITIVE"}]}
{"restaurants": [{"name": "PKWY Tavern Flamingo", "coordinates": {"latitude": 36.1158076405604, "longitude": -115.30627419742}, "city": "Las Vegas", "yelp_review_count": 635, "tweet_cnt": 0, "yelp_rating": 3.0, "vader_polarity": "POSITIVE"}]}
{"restaurants": [{"name": "Mt Charleston Lodge Restaurant", "coordinates": {"latitude": 36.257683, "longitude": -115.644121}, "city": "Las Vegas", "yelp_review_count": 549, "tweet_cnt": 6, "yelp_rating": 3.5, "vader_polarity": "POSITIVE"}]}
{"restaurants": [{"name": "Morimoto Asia", "coordinates": {"latitude": 28.370966, "longitude": -81.517892}, "city": "Lake Buena Vista", "yelp_review_count": 2212, "tweet_cnt": 73, "yelp_rating": 3.5, "vader_polarity": "POSITIVE"}]}
{"restaurants": [{"name": "Be Our Guest Restaurant", "coordinates": {"latitude": 28.421241, "longitude": -81.580715}, "city": "Orlando", "yelp_review_count": 1914, "tweet_cnt": 21, "yelp_rating": 3.5, "vader_polarity": "POSITIVE"}]}
{"restaurants": [{"name": "Rocco's Tacos & Tequila Bar", "coordinates": {"latitude": 28.44898, "longitude": -81.48431}, "city": "Orlando", "yelp_review_count": 1656, "tweet_cnt": 2, "yelp_rating": 3.5, "vader_polarity": "POSITIVE"}]}
{"restaurants": [{"name": "T-Rex Cafe", "coordinates": {"latitude": 28.3710728952698, "longitude": -81.5166355669498}, "city": "Lake Buena Vista", "yelp_review_count": 1490, "tweet_cnt": 73, "yelp_rating": 3.5, "vader_polarity": "POSITIVE"}]}
{"restaurants": [{"name": "Antojitos Authentic Mexican Food", "coordinates": {"latitude": 28.4721882, "longitude": -81.465734}, "city": "Orlando", "yelp_review_count": 1268, "tweet_cnt": 33, "yelp_rating": 3.5, "vader_polarity": "POSITIVE"}]}
{"restaurants": [{"name": "Jimmy Buffett's Margaritaville", "coordinates": {"latitude": 28.4723978042664, "longitude": -81.4665305614471}, "city": "Orlando", "yelp_review_count": 1237, "tweet_cnt": 35, "yelp_rating": 3.5, "vader_polarity": "POSITIVE"}]}
{"restaurants": [{"name": "STK Steakhouse", "coordinates": {"latitude": 28.367934, "longitude": -81.517733}, "city": "Orlando", "yelp_review_count": 1222, "tweet_cnt": 0, "yelp_rating": 3.5, "vader_polarity": "POSITIVE"}]}
{"restaurants": [{"name": "ICEBAR Orlando", "coordinates": {"latitude": 28.43467503, "longitude": -81.47178905}, "city": "Orlando", "yelp_review_count": 243, "tweet_cnt": 5, "yelp_rating": 3.5, "vader_polarity": "POSITIVE"}]}
{"restaurants": [{"name": "Latitudes Rooftop Tiki Bar", "coordinates": {"latitude": 28.54062, "longitude": -81.37976}, "city": "Orlando", "yelp_review_count": 114, "tweet_cnt": 47, "yelp_rating": 3.5, "vader_polarity": "POSITIVE"}]}
